[
    { "name": "Jakarta",          "country": "Indonesia",    "population": 41913860, "lat": -6.21,  "lng": 106.85 },
    { "name": "Dhaka",            "country": "Bangladesh",   "population": 36585479, "lat": 23.72,  "lng": 90.41  },
    { "name": "Tokyo",            "country": "Japan",        "population": 33412512, "lat": 35.69,  "lng": 139.69 },
    { "name": "Delhi",            "country": "India",        "population": 30222405, "lat": 28.66,  "lng": 77.23  },
    { "name": "Shanghai",         "country": "China",        "population": 29558908, "lat": 31.23,  "lng": 121.47 },
    { "name": "Guangzhou",        "country": "China",        "population": 27563372, "lat": 23.13,  "lng": 113.26 },
    { "name": "Cairo",            "country": "Egypt",        "population": 25566102, "lat": 30.06,  "lng": 31.25  },
    { "name": "Manila",           "country": "Philippines",  "population": 24735305, "lat": 14.60,  "lng": 120.98 },
    { "name": "Kolkata",          "country": "India",        "population": 22549738, "lat": 22.57,  "lng": 88.36  },
    { "name": "Seoul",            "country": "South Korea",  "population": 22490482, "lat": 37.57,  "lng": 126.98 },
    { "name": "Karachi",          "country": "Pakistan",     "population": 21422590, "lat": 24.86,  "lng": 67.01  },
    { "name": "Mumbai",           "country": "India",        "population": 20203056, "lat": 19.08,  "lng": 72.88  },
    { "name": "São Paulo",        "country": "Brazil",       "population": 18949790, "lat": -23.55, "lng": -46.63 },
    { "name": "Bangkok",          "country": "Thailand",     "population": 18180280, "lat": 13.75,  "lng": 100.52 },
    { "name": "Mexico City",      "country": "Mexico",       "population": 17734212, "lat": 19.43,  "lng": -99.13 },
    { "name": "Beijing",          "country": "China",        "population": 17013303, "lat": 39.91,  "lng": 116.39 },
    { "name": "Lahore",           "country": "Pakistan",     "population": 15156430, "lat": 31.55,  "lng": 74.34  },
    { "name": "Istanbul",         "country": "Turkey",       "population": 15014763, "lat": 41.01,  "lng": 28.95  },
    { "name": "Moscow",           "country": "Russia",       "population": 14524753, "lat": 55.75,  "lng": 37.62  },
    { "name": "Ho Chi Minh City", "country": "Vietnam",      "population": 14052713, "lat": 10.82,  "lng": 106.63 },
    { "name": "Buenos Aires",     "country": "Argentina",    "population": 14017736, "lat": -34.61, "lng": -58.37 },
    { "name": "New York City",    "country": "USA",          "population": 13920148, "lat": 40.71,  "lng": -74.01 },
    { "name": "Shenzhen",         "country": "China",        "population": 13878396, "lat": 22.54,  "lng": 114.06 },
    { "name": "Bengaluru",        "country": "India",        "population": 13187098, "lat": 12.97,  "lng": 77.59  },
    { "name": "Osaka",            "country": "Japan",        "population": 12964145, "lat": 34.69,  "lng": 135.50 },
    { "name": "Lagos",            "country": "Nigeria",      "population": 12791699, "lat": 6.46,   "lng": 3.38   },
    { "name": "Los Angeles",      "country": "USA",          "population": 12740420, "lat": 34.05,  "lng": -118.24},
    { "name": "Chennai",          "country": "India",        "population": 11153205, "lat": 13.09,  "lng": 80.27  },
    { "name": "Kinshasa",         "country": "DR Congo",     "population": 10943641, "lat": -4.32,  "lng": 15.32  },
    { "name": "Bogotá",           "country": "Colombia",     "population": 10624315, "lat": 4.71,   "lng": -74.07 },
    { "name": "Lima",             "country": "Peru",         "population": 10580241, "lat": -12.05, "lng": -77.04 },
    { "name": "London",           "country": "UK",           "population": 10416420, "lat": 51.51,  "lng": -0.13  },
    { "name": "Rio de Janeiro",   "country": "Brazil",       "population": 9500336,  "lat": -22.91, "lng": -43.17 },
    { "name": "Paris",            "country": "France",       "population": 9381921,  "lat": 48.86,  "lng": 2.35   },
    { "name": "Hyderabad",        "country": "India",        "population": 9190795,  "lat": 17.39,  "lng": 78.49  },
    { "name": "Tehran",           "country": "Iran",         "population": 9174964,  "lat": 35.69,  "lng": 51.42  },
    { "name": "Luanda",           "country": "Angola",       "population": 9051000,  "lat": -8.84,  "lng": 13.23  },
    { "name": "Bandung",          "country": "Indonesia",    "population": 8909104,  "lat": -6.92,  "lng": 107.61 },
    { "name": "Chicago",          "country": "USA",          "population": 8864000,  "lat": 41.85,  "lng": -87.65 },
    { "name": "Chengdu",          "country": "China",        "population": 8813000,  "lat": 30.66,  "lng": 104.07 },
    { "name": "Kuala Lumpur",     "country": "Malaysia",     "population": 8443731,  "lat": 3.14,   "lng": 101.69 },
    { "name": "Dar es Salaam",    "country": "Tanzania",     "population": 7795114,  "lat": -6.80,  "lng": 39.27  },
    { "name": "Suzhou",           "country": "China",        "population": 7731101,  "lat": 31.30,  "lng": 120.61 },
    { "name": "Ahmedabad",        "country": "India",        "population": 7632408,  "lat": 23.03,  "lng": 72.58  },
    { "name": "Hangzhou",         "country": "China",        "population": 7500208,  "lat": 30.27,  "lng": 120.15 },
    { "name": "Xi'an",            "country": "China",        "population": 7444000,  "lat": 34.27,  "lng": 108.95 },
    { "name": "Hong Kong",        "country": "China",        "population": 7429000,  "lat": 22.32,  "lng": 114.17 },
    { "name": "Wuhan",            "country": "China",        "population": 7363548,  "lat": 30.59,  "lng": 114.31 },
    { "name": "Dongguan",         "country": "China",        "population": 7360000,  "lat": 23.02,  "lng": 113.75 },
    { "name": "Tianjin",          "country": "China",        "population": 7285342,  "lat": 39.13,  "lng": 117.18 },
    { "name": "Alexandria",       "country": "Egypt",        "population": 7266957,  "lat": 31.20,  "lng": 29.92  },
    { "name": "Foshan",           "country": "China",        "population": 7236000,  "lat": 23.02,  "lng": 113.12 },
    { "name": "Nagoya",           "country": "Japan",        "population": 7146160,  "lat": 35.18,  "lng": 136.91 },
    { "name": "Johannesburg",     "country": "South Africa", "population": 7077175,  "lat": -26.20, "lng": 28.04  },
    { "name": "Chongqing",        "country": "China",        "population": 7071073,  "lat": 29.56,  "lng": 106.55 },
    { "name": "Shenyang",         "country": "China",        "population": 6921000,  "lat": 41.80,  "lng": 123.43 },
    { "name": "Riyadh",           "country": "Saudi Arabia", "population": 6916417,  "lat": 24.69,  "lng": 46.72  },
    { "name": "Surat",            "country": "India",        "population": 6908925,  "lat": 21.17,  "lng": 72.83  },
    { "name": "Surabaya",         "country": "Indonesia",    "population": 6843503,  "lat": -7.25,  "lng": 112.75 },
    { "name": "Pune",             "country": "India",        "population": 6817951,  "lat": 18.52,  "lng": 73.86  },
    { "name": "Baghdad",          "country": "Iraq",         "population": 6812000,  "lat": 33.34,  "lng": 44.40  },
    { "name": "Khartoum",         "country": "Sudan",        "population": 6809355,  "lat": 15.55,  "lng": 32.53  },
    { "name": "Nanjing",          "country": "China",        "population": 6800676,  "lat": 32.06,  "lng": 118.78 },
    { "name": "Santiago",         "country": "Chile",        "population": 6726045,  "lat": -33.46, "lng": -70.65 },
    { "name": "Madrid",           "country": "Spain",        "population": 6497000,  "lat": 40.42,  "lng": -3.70  },
    { "name": "Harbin",           "country": "China",        "population": 6115000,  "lat": 45.75,  "lng": 126.65 },
    { "name": "Houston",          "country": "USA",          "population": 6115000,  "lat": 29.76,  "lng": -95.37 },
    { "name": "Dallas",           "country": "USA",          "population": 6099000,  "lat": 32.79,  "lng": -96.77 },
    { "name": "Toronto",          "country": "Canada",       "population": 6082000,  "lat": 43.70,  "lng": -79.42 },
    { "name": "Miami",            "country": "USA",          "population": 6036000,  "lat": 25.77,  "lng": -80.19 },
    { "name": "Belo Horizonte",   "country": "Brazil",       "population": 5972000,  "lat": -19.92, "lng": -43.94 },
    { "name": "Singapore",        "country": "Singapore",    "population": 5792000,  "lat": 1.35,   "lng": 103.82 },
    { "name": "Ankara",           "country": "Turkey",       "population": 5700000,  "lat": 39.93,  "lng": 32.86  },
    { "name": "Philadelphia",     "country": "USA",          "population": 5695000,  "lat": 39.95,  "lng": -75.17 },
    { "name": "Atlanta",          "country": "USA",          "population": 5572000,  "lat": 33.75,  "lng": -84.39 },
    { "name": "Fukuoka",          "country": "Japan",        "population": 5551000,  "lat": 33.58,  "lng": 130.40 },
    { "name": "Barcelona",        "country": "Spain",        "population": 5494000,  "lat": 41.39,  "lng": 2.15   },
    { "name": "Saint Petersburg", "country": "Russia",       "population": 5383000,  "lat": 59.95,  "lng": 30.32  },
    { "name": "Qingdao",          "country": "China",        "population": 5381000,  "lat": 36.07,  "lng": 120.38 },
    { "name": "Sydney",           "country": "Australia",    "population": 5312000,  "lat": -33.87, "lng": 151.21 },
    { "name": "Dalian",           "country": "China",        "population": 5300000,  "lat": 38.91,  "lng": 121.60 },
    { "name": "Monterrey",        "country": "Mexico",       "population": 5300000,  "lat": 25.67,  "lng": -100.32},
    { "name": "Washington DC",    "country": "USA",          "population": 5207000,  "lat": 38.91,  "lng": -77.04 },
    { "name": "Yangon",           "country": "Myanmar",      "population": 5157000,  "lat": 16.87,  "lng": 96.15  },
    { "name": "Melbourne",        "country": "Australia",    "population": 5078000,  "lat": -37.81, "lng": 144.96 },
    { "name": "Zhengzhou",        "country": "China",        "population": 5052000,  "lat": 34.75,  "lng": 113.63 },
    { "name": "Jinan",            "country": "China",        "population": 5052000,  "lat": 36.67,  "lng": 116.99 },
    { "name": "Guadalajara",      "country": "Mexico",       "population": 5023000,  "lat": 20.67,  "lng": -103.35},
    { "name": "Abidjan",          "country": "Ivory Coast",  "population": 5000000,  "lat": 5.32,   "lng": -4.03  },
    { "name": "Nairobi",          "country": "Kenya",        "population": 4922000,  "lat": -1.29,  "lng": 36.82  },
    { "name": "Kabul",            "country": "Afghanistan",  "population": 4900000,  "lat": 34.53,  "lng": 69.17  },
    { "name": "Addis Ababa",      "country": "Ethiopia",     "population": 4794000,  "lat": 9.02,   "lng": 38.75  },
    { "name": "Accra",            "country": "Ghana",        "population": 4699000,  "lat": 5.56,   "lng": -0.20  },
    { "name": "Porto Alegre",     "country": "Brazil",       "population": 4300000,  "lat": -30.03, "lng": -51.23 },
    { "name": "Casablanca",       "country": "Morocco",      "population": 4300000,  "lat": 33.59,  "lng": -7.62  },
    { "name": "Recife",           "country": "Brazil",       "population": 4100000,  "lat": -8.05,  "lng": -34.88 },
    { "name": "Kunming",          "country": "China",        "population": 4000000,  "lat": 25.04,  "lng": 102.72 },
    { "name": "Berlin",           "country": "Germany",      "population": 3769000,  "lat": 52.52,  "lng": 13.40  },
    { "name": "Caracas",          "country": "Venezuela",    "population": 2900000,  "lat": 10.49,  "lng": -66.88 },
    { "name": "Taipei",           "country": "Taiwan",       "population": 2646000,  "lat": 25.05,  "lng": 121.53 }
]
